{
    "appendix": {
        "airlines": [
            {
                "active": true,
                "fs": "TK",
                "iata": "TK",
                "icao": "THY",
                "name": "Turkish Airlines"
            },
            {
                "active": true,
                "fs": "LX",
                "iata": "LX",
                "icao": "SWR",
                "name": "SWISS"
            },
            {
                "active": true,
                "fs": "BA",
                "iata": "BA",
                "icao": "BAW",
                "name": "British Airways",
                "phoneNumber": "1-800-AIRWAYS"
            },
            {
                "active": true,
                "fs": "J9",
                "iata": "J9",
                "icao": "JZR",
                "name": "Jazeera Airways"
            },
            {
                "active": true,
                "fs": "AC",
                "iata": "AC",
                "icao": "ACA",
                "name": "Air Canada",
                "phoneNumber": "1-800-247-2262"
            },
            {
                "active": true,
                "fs": "SV",
                "iata": "SV",
                "icao": "SVA",
                "name": "Saudia"
            },
            {
                "active": true,
                "fs": "DL",
                "iata": "DL",
                "icao": "DAL",
                "name": "Delta Air Lines",
                "phoneNumber": "1-800-221-1212"
            },
            {
                "active": true,
                "fs": "AF",
                "iata": "AF",
                "icao": "AFR",
                "name": "Air France",
                "phoneNumber": "1-800-237-2747"
            },
            {
                "active": true,
                "fs": "LH",
                "iata": "LH",
                "icao": "DLH",
                "name": "Lufthansa"
            },
            {
                "active": true,
                "fs": "EK",
                "iata": "EK",
                "icao": "UAE",
                "name": "Emirates"
            }
        ],
        "airports": [
            {
                "active": true,
                "city": "London",
                "cityCode": "LON",
                "classification": 1,
                "countryCode": "GB",
                "countryName": "United Kingdom",
                "delayIndexUrl": "https://api.flightstats.com/flex/delayindex/rest/v1/json/airports/LGW?codeType=fs",
                "elevationFeet": 194,
                "fs": "LGW",
                "iata": "LGW",
                "icao": "EGKK",
                "latitude": 51.150836,
                "localTime": "2014-07-27T15:15:39.768",
                "longitude": -0.177416,
                "name": "London Gatwick Airport",
                "regionName": "Europe",
                "stateCode": "EN",
                "timeZoneRegionName": "Europe/London",
                "utcOffsetHours": 1.0,
                "weatherUrl": "https://api.flightstats.com/flex/weather/rest/v1/json/all/LGW?codeType=fs"
            },
            {
                "active": true,
                "city": "Bologna",
                "cityCode": "BLQ",
                "classification": 2,
                "countryCode": "IT",
                "countryName": "Italy",
                "delayIndexUrl": "https://api.flightstats.com/flex/delayindex/rest/v1/json/airports/BLQ?codeType=fs",
                "elevationFeet": 125,
                "fs": "BLQ",
                "iata": "BLQ",
                "icao": "LIPE",
                "latitude": 44.529268,
                "localTime": "2014-07-27T16:15:39.711",
                "longitude": 11.293289,
                "name": "Guglielmo Marconi Airport",
                "regionName": "Europe",
                "timeZoneRegionName": "Europe/Rome",
                "utcOffsetHours": 2.0,
                "weatherUrl": "https://api.flightstats.com/flex/weather/rest/v1/json/all/BLQ?codeType=fs"
            },
            {
                "active": true,
                "city": "Kuwait",
                "cityCode": "KWI",
                "classification": 2,
                "countryCode": "KW",
                "countryName": "Kuwait",
                "delayIndexUrl": "https://api.flightstats.com/flex/delayindex/rest/v1/json/airports/KWI?codeType=fs",
                "elevationFeet": 175,
                "fs": "KWI",
                "iata": "KWI",
                "icao": "OKBK",
                "latitude": 29.240116,
                "localTime": "2014-07-27T17:15:39.662",
                "longitude": 47.971251,
                "name": "Kuwait International Airport",
                "regionName": "Middle East",
                "timeZoneRegionName": "Asia/Kuwait",
                "utcOffsetHours": 3.0,
                "weatherUrl": "https://api.flightstats.com/flex/weather/rest/v1/json/all/KWI?codeType=fs"
            },
            {
                "active": true,
                "city": "Istanbul",
                "cityCode": "IST",
                "classification": 1,
                "countryCode": "TR",
                "countryName": "Turkey",
                "delayIndexUrl": "https://api.flightstats.com/flex/delayindex/rest/v1/json/airports/IST?codeType=fs",
                "elevationFeet": 158,
                "fs": "IST",
                "iata": "IST",
                "icao": "LTBA",
                "latitude": 40.976667,
                "localTime": "2014-07-27T17:15:39.249",
                "longitude": 28.815278,
                "name": "Istanbul Ataturk Airport",
                "regionName": "Europe",
                "timeZoneRegionName": "Europe/Istanbul",
                "utcOffsetHours": 3.0,
                "weatherUrl": "https://api.flightstats.com/flex/weather/rest/v1/json/all/IST?codeType=fs"
            },
            {
                "active": true,
                "city": "Dubai",
                "cityCode": "DXB",
                "classification": 1,
                "countryCode": "AE",
                "countryName": "United Arab Emirates",
                "delayIndexUrl": "https://api.flightstats.com/flex/delayindex/rest/v1/json/airports/DXB?codeType=fs",
                "elevationFeet": 34,
                "fs": "DXB",
                "iata": "DXB",
                "icao": "OMDB",
                "latitude": 25.248664,
                "localTime": "2014-07-27T18:15:39.661",
                "longitude": 55.352916,
                "name": "Dubai Airport",
                "regionName": "Middle East",
                "timeZoneRegionName": "Asia/Dubai",
                "utcOffsetHours": 4.0,
                "weatherUrl": "https://api.flightstats.com/flex/weather/rest/v1/json/all/DXB?codeType=fs"
            },
            {
                "active": true,
                "city": "Amsterdam",
                "cityCode": "AMS",
                "classification": 1,
                "countryCode": "NL",
                "countryName": "Netherlands",
                "delayIndexUrl": "https://api.flightstats.com/flex/delayindex/rest/v1/json/airports/AMS?codeType=fs",
                "elevationFeet": -11,
                "fs": "AMS",
                "iata": "AMS",
                "icao": "EHAM",
                "latitude": 52.309069,
                "localTime": "2014-07-27T16:15:39.681",
                "longitude": 4.763385,
                "name": "Amsterdam Airport Schiphol",
                "regionName": "Europe",
                "timeZoneRegionName": "Europe/Amsterdam",
                "utcOffsetHours": 2.0,
                "weatherUrl": "https://api.flightstats.com/flex/weather/rest/v1/json/all/AMS?codeType=fs"
            },
            {
                "active": true,
                "city": "New York",
                "cityCode": "NYC",
                "classification": 1,
                "countryCode": "US",
                "countryName": "United States",
                "delayIndexUrl": "https://api.flightstats.com/flex/delayindex/rest/v1/json/airports/JFK?codeType=fs",
                "elevationFeet": 13,
                "faa": "JFK",
                "fs": "JFK",
                "iata": "JFK",
                "icao": "KJFK",
                "latitude": 40.642335,
                "localTime": "2014-07-27T10:15:39.660",
                "longitude": -73.78817,
                "name": "John F. Kennedy International Airport",
                "postalCode": "11430",
                "regionName": "North America",
                "stateCode": "NY",
                "street1": "JFK Airport",
                "timeZoneRegionName": "America/New_York",
                "utcOffsetHours": -4.0,
                "weatherUrl": "https://api.flightstats.com/flex/weather/rest/v1/json/all/JFK?codeType=fs",
                "weatherZone": "NYZ178"
            },
            {
                "active": true,
                "city": "Frankfurt",
                "cityCode": "FRA",
                "classification": 1,
                "countryCode": "DE",
                "countryName": "Germany",
                "delayIndexUrl": "https://api.flightstats.com/flex/delayindex/rest/v1/json/airports/FRA?codeType=fs",
                "elevationFeet": 381,
                "fs": "FRA",
                "iata": "FRA",
                "icao": "EDDF",
                "latitude": 50.048952,
                "localTime": "2014-07-27T16:15:39.652",
                "longitude": 8.573678,
                "name": "Frankfurt am Main Airport",
                "regionName": "Europe",
                "timeZoneRegionName": "Europe/Berlin",
                "utcOffsetHours": 2.0,
                "weatherUrl": "https://api.flightstats.com/flex/weather/rest/v1/json/all/FRA?codeType=fs"
            },
            {
                "active": true,
                "city": "Milan",
                "cityCode": "MIL",
                "classification": 2,
                "countryCode": "IT",
                "countryName": "Italy",
                "delayIndexUrl": "https://api.flightstats.com/flex/delayindex/rest/v1/json/airports/MXP?codeType=fs",
                "elevationFeet": 733,
                "fs": "MXP",
                "iata": "MXP",
                "icao": "LIMC",
                "latitude": 45.627405,
                "localTime": "2014-07-27T16:15:39.789",
                "longitude": 8.71237,
                "name": "Milano Malpensa Airport",
                "regionName": "Europe",
                "timeZoneRegionName": "Europe/Rome",
                "utcOffsetHours": 2.0,
                "weatherUrl": "https://api.flightstats.com/flex/weather/rest/v1/json/all/MXP?codeType=fs"
            },
            {
                "active": true,
                "city": "Dublin",
                "cityCode": "DUB",
                "classification": 2,
                "countryCode": "IE",
                "countryName": "Ireland",
                "delayIndexUrl": "https://api.flightstats.com/flex/delayindex/rest/v1/json/airports/DUB?codeType=fs",
                "elevationFeet": 242,
                "fs": "DUB",
                "iata": "DUB",
                "icao": "EIDW",
                "latitude": 53.42728,
                "localTime": "2014-07-27T15:15:39.734",
                "longitude": -6.24357,
                "name": "Dublin Airport",
                "regionName": "Europe",
                "timeZoneRegionName": "Europe/Dublin",
                "utcOffsetHours": 1.0,
                "weatherUrl": "https://api.flightstats.com/flex/weather/rest/v1/json/all/DUB?codeType=fs"
            },
            {
                "active": true,
                "city": "Toronto",
                "cityCode": "YTO",
                "classification": 1,
                "countryCode": "CA",
                "countryName": "Canada",
                "delayIndexUrl": "https://api.flightstats.com/flex/delayindex/rest/v1/json/airports/YYZ?codeType=fs",
                "elevationFeet": 569,
                "fs": "YYZ",
                "iata": "YYZ",
                "icao": "CYYZ",
                "latitude": 43.681585,
                "localTime": "2014-07-27T10:15:39.656",
                "longitude": -79.61146,
                "name": "Pearson International Airport",
                "postalCode": "L5P 1B2",
                "regionName": "North America",
                "stateCode": "ON",
                "street1": "",
                "street2": "",
                "timeZoneRegionName": "America/Toronto",
                "utcOffsetHours": -4.0,
                "weatherUrl": "https://api.flightstats.com/flex/weather/rest/v1/json/all/YYZ?codeType=fs"
            },
            {
                "active": true,
                "city": "Accra",
                "cityCode": "ACC",
                "classification": 3,
                "countryCode": "GH",
                "countryName": "Ghana",
                "delayIndexUrl": "https://api.flightstats.com/flex/delayindex/rest/v1/json/airports/ACC?codeType=fs",
                "elevationFeet": 205,
                "fs": "ACC",
                "iata": "ACC",
                "icao": "DGAA",
                "latitude": 5.60737,
                "localTime": "2014-07-27T14:15:39.640",
                "longitude": -0.171769,
                "name": "Kotoka Airport",
                "regionName": "Africa",
                "timeZoneRegionName": "Africa/Accra",
                "utcOffsetHours": 0.0,
                "weatherUrl": "https://api.flightstats.com/flex/weather/rest/v1/json/all/ACC?codeType=fs"
            },
            {
                "active": true,
                "city": "Prague",
                "cityCode": "PRG",
                "classification": 2,
                "countryCode": "CZ",
                "countryName": "Czech Republic",
                "delayIndexUrl": "https://api.flightstats.com/flex/delayindex/rest/v1/json/airports/PRG?codeType=fs",
                "elevationFeet": 1170,
                "fs": "PRG",
                "iata": "PRG",
                "icao": "LKPR",
                "latitude": 50.106188,
                "localTime": "2014-07-27T16:15:39.673",
                "longitude": 14.266638,
                "name": "Vaclav Havel Airport Prague",
                "regionName": "Europe",
                "timeZoneRegionName": "Europe/Prague",
                "utcOffsetHours": 2.0,
                "weatherUrl": "https://api.flightstats.com/flex/weather/rest/v1/json/all/PRG?codeType=fs"
            },
            {
                "active": true,
                "city": "Turin",
                "cityCode": "TRN",
                "classification": 3,
                "countryCode": "IT",
                "countryName": "Italy",
                "delayIndexUrl": "https://api.flightstats.com/flex/delayindex/rest/v1/json/airports/TRN?codeType=fs",
                "elevationFeet": 964,
                "fs": "TRN",
                "iata": "TRN",
                "icao": "LIMF",
                "latitude": 45.191455,
                "localTime": "2014-07-27T16:15:39.794",
                "longitude": 7.643049,
                "name": "Citta Di Torino Airport",
                "regionName": "Europe",
                "timeZoneRegionName": "Europe/Rome",
                "utcOffsetHours": 2.0,
                "weatherUrl": "https://api.flightstats.com/flex/weather/rest/v1/json/all/TRN?codeType=fs"
            },
            {
                "active": true,
                "city": "Chicago",
                "cityCode": "CHI",
                "classification": 1,
                "countryCode": "US",
                "countryName": "United States",
                "delayIndexUrl": "https://api.flightstats.com/flex/delayindex/rest/v1/json/airports/ORD?codeType=fs",
                "elevationFeet": 668,
                "faa": "ORD",
                "fs": "ORD",
                "iata": "ORD",
                "icao": "KORD",
                "latitude": 41.976912,
                "localTime": "2014-07-27T09:15:39.707",
                "longitude": -87.904876,
                "name": "O'Hare International Airport",
                "postalCode": "60666",
                "regionName": "North America",
                "stateCode": "IL",
                "street1": "10000 West O'Hare",
                "timeZoneRegionName": "America/Chicago",
                "utcOffsetHours": -5.0,
                "weatherUrl": "https://api.flightstats.com/flex/weather/rest/v1/json/all/ORD?codeType=fs",
                "weatherZone": "ILZ014"
            },
            {
                "active": true,
                "city": "Cizre",
                "classification": 4,
                "countryCode": "TR",
                "countryName": "Turkey",
                "delayIndexUrl": "https://api.flightstats.com/flex/delayindex/rest/v1/json/airports/NKT?codeType=fs",
                "elevationFeet": 2042,
                "fs": "NKT",
                "iata": "NKT",
                "latitude": 37.363333,
                "localTime": "2014-07-27T17:15:39.790",
                "longitude": 42.059722,
                "name": "Sirnak Airport",
                "regionName": "Europe",
                "timeZoneRegionName": "Europe/Istanbul",
                "utcOffsetHours": 3.0,
                "weatherUrl": "https://api.flightstats.com/flex/weather/rest/v1/json/all/NKT?codeType=fs"
            },
            {
                "active": true,
                "city": "Geneva",
                "cityCode": "GVA",
                "classification": 2,
                "countryCode": "CH",
                "countryName": "Switzerland",
                "delayIndexUrl": "https://api.flightstats.com/flex/delayindex/rest/v1/json/airports/GVA?codeType=fs",
                "elevationFeet": 1411,
                "fs": "GVA",
                "iata": "GVA",
                "icao": "LSGG",
                "latitude": 46.229634,
                "localTime": "2014-07-27T16:15:39.742",
                "longitude": 6.105774,
                "name": "Geneve-Cointrin Airport",
                "regionName": "Europe",
                "timeZoneRegionName": "Europe/Zurich",
                "utcOffsetHours": 2.0,
                "weatherUrl": "https://api.flightstats.com/flex/weather/rest/v1/json/all/GVA?codeType=fs"
            },
            {
                "active": true,
                "city": "Algiers",
                "cityCode": "ALG",
                "classification": 2,
                "countryCode": "DZ",
                "countryName": "Algeria",
                "delayIndexUrl": "https://api.flightstats.com/flex/delayindex/rest/v1/json/airports/ALG?codeType=fs",
                "elevationFeet": 82,
                "fs": "ALG",
                "iata": "ALG",
                "icao": "DAAG",
                "latitude": 36.70058,
                "localTime": "2014-07-27T15:15:39.676",
                "longitude": 3.21167,
                "name": "Houari Boumediene Airport",
                "regionName": "Africa",
                "timeZoneRegionName": "Africa/Algiers",
                "utcOffsetHours": 1.0,
                "weatherUrl": "https://api.flightstats.com/flex/weather/rest/v1/json/all/ALG?codeType=fs"
            },
            {
                "active": true,
                "city": "Mus",
                "cityCode": "MSR",
                "classification": 4,
                "countryCode": "TR",
                "countryName": "Turkey",
                "delayIndexUrl": "https://api.flightstats.com/flex/delayindex/rest/v1/json/airports/MSR?codeType=fs",
                "elevationFeet": 4157,
                "fs": "MSR",
                "iata": "MSR",
                "icao": "LTCK",
                "latitude": 38.725,
                "localTime": "2014-07-27T17:15:39.787",
                "longitude": 41.625,
                "name": "Mus Airport",
                "regionName": "Europe",
                "timeZoneRegionName": "Europe/Istanbul",
                "utcOffsetHours": 3.0,
                "weatherUrl": "https://api.flightstats.com/flex/weather/rest/v1/json/all/MSR?codeType=fs"
            },
            {
                "active": true,
                "city": "Paris",
                "cityCode": "PAR",
                "classification": 1,
                "countryCode": "FR",
                "countryName": "France",
                "delayIndexUrl": "https://api.flightstats.com/flex/delayindex/rest/v1/json/airports/CDG?codeType=fs",
                "elevationFeet": 387,
                "fs": "CDG",
                "iata": "CDG",
                "icao": "LFPG",
                "latitude": 49.003196,
                "localTime": "2014-07-27T16:15:39.659",
                "longitude": 2.567023,
                "name": "Charles de Gaulle Airport",
                "regionName": "Europe",
                "street1": "95711, Roissy Charles de Gaulle",
                "timeZoneRegionName": "Europe/Paris",
                "utcOffsetHours": 2.0,
                "weatherUrl": "https://api.flightstats.com/flex/weather/rest/v1/json/all/CDG?codeType=fs"
            },
            {
                "active": true,
                "city": "Stuttgart",
                "cityCode": "STR",
                "classification": 2,
                "countryCode": "DE",
                "countryName": "Germany",
                "delayIndexUrl": "https://api.flightstats.com/flex/delayindex/rest/v1/json/airports/STR?codeType=fs",
                "elevationFeet": 1250,
                "fs": "STR",
                "iata": "STR",
                "icao": "EDDS",
                "latitude": 48.690732,
                "localTime": "2014-07-27T16:15:39.793",
                "longitude": 9.193624,
                "name": "Stuttgart Airport",
                "regionName": "Europe",
                "timeZoneRegionName": "Europe/Berlin",
                "utcOffsetHours": 2.0,
                "weatherUrl": "https://api.flightstats.com/flex/weather/rest/v1/json/all/STR?codeType=fs"
            },
            {
                "active": true,
                "city": "Madrid",
                "cityCode": "MAD",
                "classification": 1,
                "countryCode": "ES",
                "countryName": "Spain and Canary Islands",
                "delayIndexUrl": "https://api.flightstats.com/flex/delayindex/rest/v1/json/airports/MAD?codeType=fs",
                "elevationFeet": 1953,
                "fs": "MAD",
                "iata": "MAD",
                "icao": "LEMD",
                "latitude": 40.49027,
                "localTime": "2014-07-27T16:15:39.773",
                "longitude": -3.564479,
                "name": "Adolfo Suarez Madrid-Barajas Airport",
                "regionName": "Europe",
                "stateCode": "SP",
                "timeZoneRegionName": "Europe/Madrid",
                "utcOffsetHours": 2.0,
                "weatherUrl": "https://api.flightstats.com/flex/weather/rest/v1/json/all/MAD?codeType=fs"
            },
            {
                "active": true,
                "city": "Jeddah",
                "cityCode": "JED",
                "classification": 2,
                "countryCode": "SA",
                "countryName": "Saudi Arabia",
                "delayIndexUrl": "https://api.flightstats.com/flex/delayindex/rest/v1/json/airports/JED?codeType=fs",
                "elevationFeet": 48,
                "fs": "JED",
                "iata": "JED",
                "icao": "OEJN",
                "latitude": 21.670232,
                "localTime": "2014-07-27T17:15:39.708",
                "longitude": 39.150579,
                "name": "King Abdulaziz International Airport",
                "regionName": "Middle East",
                "timeZoneRegionName": "Asia/Riyadh",
                "utcOffsetHours": 3.0,
                "weatherUrl": "https://api.flightstats.com/flex/weather/rest/v1/json/all/JED?codeType=fs"
            },
            {
                "active": true,
                "city": "Batman",
                "cityCode": "BAL",
                "classification": 4,
                "countryCode": "TR",
                "countryName": "Turkey",
                "delayIndexUrl": "https://api.flightstats.com/flex/delayindex/rest/v1/json/airports/BAL?codeType=fs",
                "elevationFeet": 1818,
                "fs": "BAL",
                "iata": "BAL",
                "icao": "LTCJ",
                "latitude": 37.916667,
                "localTime": "2014-07-27T17:15:39.709",
                "longitude": 41.083333,
                "name": "Batman Airport",
                "regionName": "Europe",
                "timeZoneRegionName": "Europe/Istanbul",
                "utcOffsetHours": 3.0,
                "weatherUrl": "https://api.flightstats.com/flex/weather/rest/v1/json/all/BAL?codeType=fs"
            },
            {
                "active": true,
                "city": "Nuremberg",
                "cityCode": "NUE",
                "classification": 3,
                "countryCode": "DE",
                "countryName": "Germany",
                "delayIndexUrl": "https://api.flightstats.com/flex/delayindex/rest/v1/json/airports/NUE?codeType=fs",
                "elevationFeet": 1045,
                "fs": "NUE",
                "iata": "NUE",
                "icao": "EDDN",
                "latitude": 49.494168,
                "localTime": "2014-07-27T16:15:39.791",
                "longitude": 11.077062,
                "name": "Nuremberg Airport",
                "regionName": "Europe",
                "timeZoneRegionName": "Europe/Berlin",
                "utcOffsetHours": 2.0,
                "weatherUrl": "https://api.flightstats.com/flex/weather/rest/v1/json/all/NUE?codeType=fs"
            },
            {
                "active": true,
                "city": "Munich",
                "cityCode": "MUC",
                "classification": 1,
                "countryCode": "DE",
                "countryName": "Germany",
                "delayIndexUrl": "https://api.flightstats.com/flex/delayindex/rest/v1/json/airports/MUC?codeType=fs",
                "elevationFeet": 1486,
                "fs": "MUC",
                "iata": "MUC",
                "icao": "EDDM",
                "latitude": 48.353005,
                "localTime": "2014-07-27T16:15:39.663",
                "longitude": 11.790143,
                "name": "Franz Josef Strauss Airport",
                "regionName": "Europe",
                "timeZoneRegionName": "Europe/Berlin",
                "utcOffsetHours": 2.0,
                "weatherUrl": "https://api.flightstats.com/flex/weather/rest/v1/json/all/MUC?codeType=fs"
            },
            {
                "active": true,
                "city": "Manchester",
                "cityCode": "MAN",
                "classification": 1,
                "countryCode": "GB",
                "countryName": "United Kingdom",
                "delayIndexUrl": "https://api.flightstats.com/flex/delayindex/rest/v1/json/airports/MAN?codeType=fs",
                "elevationFeet": 256,
                "fs": "MAN",
                "iata": "MAN",
                "icao": "EGCC",
                "latitude": 53.362908,
                "localTime": "2014-07-27T15:15:39.785",
                "longitude": -2.273354,
                "name": "Manchester Airport",
                "regionName": "Europe",
                "stateCode": "EN",
                "timeZoneRegionName": "Europe/London",
                "utcOffsetHours": 1.0,
                "weatherUrl": "https://api.flightstats.com/flex/weather/rest/v1/json/all/MAN?codeType=fs"
            },
            {
                "active": true,
                "city": "Hanover",
                "cityCode": "HAJ",
                "classification": 2,
                "countryCode": "DE",
                "countryName": "Germany",
                "delayIndexUrl": "https://api.flightstats.com/flex/delayindex/rest/v1/json/airports/HAJ?codeType=fs",
                "elevationFeet": 183,
                "fs": "HAJ",
                "iata": "HAJ",
                "icao": "EDDV",
                "latitude": 52.459254,
                "localTime": "2014-07-27T16:15:39.745",
                "longitude": 9.694766,
                "name": "Hanover Airport",
                "regionName": "Europe",
                "timeZoneRegionName": "Europe/Berlin",
                "utcOffsetHours": 2.0,
                "weatherUrl": "https://api.flightstats.com/flex/weather/rest/v1/json/all/HAJ?codeType=fs"
            },
            {
                "active": true,
                "city": "London",
                "cityCode": "LON",
                "classification": 1,
                "countryCode": "GB",
                "countryName": "United Kingdom",
                "delayIndexUrl": "https://api.flightstats.com/flex/delayindex/rest/v1/json/airports/LHR?codeType=fs",
                "elevationFeet": 80,
                "fs": "LHR",
                "iata": "LHR",
                "icao": "EGLL",
                "latitude": 51.469603,
                "localTime": "2014-07-27T15:15:39.646",
                "longitude": -0.453566,
                "name": "London Heathrow Airport",
                "regionName": "Europe",
                "stateCode": "EN",
                "timeZoneRegionName": "Europe/London",
                "utcOffsetHours": 1.0,
                "weatherUrl": "https://api.flightstats.com/flex/weather/rest/v1/json/all/LHR?codeType=fs"
            },
            {
                "active": true,
                "city": "Stockholm",
                "cityCode": "STO",
                "classification": 1,
                "countryCode": "SE",
                "countryName": "Sweden",
                "delayIndexUrl": "https://api.flightstats.com/flex/delayindex/rest/v1/json/airports/ARN?codeType=fs",
                "elevationFeet": 123,
                "fs": "ARN",
                "iata": "ARN",
                "icao": "ESSA",
                "latitude": 59.649818,
                "localTime": "2014-07-27T16:15:39.684",
                "longitude": 17.930364,
                "name": "Stockholm Arlanda Airport",
                "regionName": "Europe",
                "timeZoneRegionName": "Europe/Stockholm",
                "utcOffsetHours": 2.0,
                "weatherUrl": "https://api.flightstats.com/flex/weather/rest/v1/json/all/ARN?codeType=fs"
            },
            {
                "active": true,
                "city": "Cotonou",
                "cityCode": "COO",
                "classification": 4,
                "countryCode": "BJ",
                "countryName": "Benin",
                "delayIndexUrl": "https://api.flightstats.com/flex/delayindex/rest/v1/json/airports/COO?codeType=fs",
                "elevationFeet": 19,
                "fs": "COO",
                "iata": "COO",
                "icao": "DBBB",
                "latitude": 6.353097,
                "localTime": "2014-07-27T15:15:39.733",
                "longitude": 2.385271,
                "name": "Cotonou Airport",
                "regionName": "Africa",
                "timeZoneRegionName": "Africa/Porto-Novo",
                "utcOffsetHours": 1.0,
                "weatherUrl": "https://api.flightstats.com/flex/weather/rest/v1/json/all/COO?codeType=fs"
            },
            {
                "active": true,
                "city": "Boston",
                "cityCode": "BOS",
                "classification": 1,
                "countryCode": "US",
                "countryName": "United States",
                "delayIndexUrl": "https://api.flightstats.com/flex/delayindex/rest/v1/json/airports/BOS?codeType=fs",
                "elevationFeet": 19,
                "faa": "BOS",
                "fs": "BOS",
                "iata": "BOS",
                "icao": "KBOS",
                "latitude": 42.36646,
                "localTime": "2014-07-27T10:15:39.720",
                "longitude": -71.020176,
                "name": "Logan International Airport",
                "postalCode": "02128-2909",
                "regionName": "North America",
                "stateCode": "MA",
                "street1": "One Harborside Drive",
                "street2": "",
                "timeZoneRegionName": "America/New_York",
                "utcOffsetHours": -4.0,
                "weatherUrl": "https://api.flightstats.com/flex/weather/rest/v1/json/all/BOS?codeType=fs",
                "weatherZone": "MAZ015"
            },
            {
                "active": true,
                "city": "Hamburg",
                "cityCode": "HAM",
                "classification": 2,
                "countryCode": "DE",
                "countryName": "Germany",
                "delayIndexUrl": "https://api.flightstats.com/flex/delayindex/rest/v1/json/airports/HAM?codeType=fs",
                "elevationFeet": 53,
                "fs": "HAM",
                "iata": "HAM",
                "icao": "EDDH",
                "latitude": 53.631279,
                "localTime": "2014-07-27T16:15:39.748",
                "longitude": 10.006414,
                "name": "Hamburg Airport",
                "regionName": "Europe",
                "timeZoneRegionName": "Europe/Berlin",
                "utcOffsetHours": 2.0,
                "weatherUrl": "https://api.flightstats.com/flex/weather/rest/v1/json/all/HAM?codeType=fs"
            },
            {
                "active": true,
                "city": "Golgen",
                "classification": 4,
                "countryCode": "TR",
                "countryName": "Turkey",
                "delayIndexUrl": "https://api.flightstats.com/flex/delayindex/rest/v1/json/airports/GNY?codeType=fs",
                "elevationFeet": 2686,
                "fs": "GNY",
                "iata": "GNY",
                "icao": "LTCS",
                "latitude": 37.44747,
                "localTime": "2014-07-27T17:15:39.737",
                "longitude": 38.900313,
                "name": "Sanliurfa GAP Airport",
                "regionName": "Europe",
                "timeZoneRegionName": "Europe/Istanbul",
                "utcOffsetHours": 3.0,
                "weatherUrl": "https://api.flightstats.com/flex/weather/rest/v1/json/all/GNY?codeType=fs"
            },
            {
                "active": true,
                "city": "Basel, Switzerland/Mulhouse",
                "cityCode": "EAP",
                "classification": 2,
                "countryCode": "FR",
                "countryName": "France",
                "delayIndexUrl": "https://api.flightstats.com/flex/delayindex/rest/v1/json/airports/BSL?codeType=fs",
                "elevationFeet": 883,
                "fs": "BSL",
                "iata": "BSL",
                "latitude": 47.599608,
                "localTime": "2014-07-27T16:15:39.729",
                "longitude": 7.532604,
                "name": "EuroAirport Swiss",
                "regionName": "Europe",
                "timeZoneRegionName": "Europe/Paris",
                "utcOffsetHours": 2.0,
                "weatherUrl": "https://api.flightstats.com/flex/weather/rest/v1/json/all/BSL?codeType=fs"
            },
            {
                "active": true,
                "city": "Brussels",
                "cityCode": "BRU",
                "classification": 1,
                "countryCode": "BE",
                "countryName": "Belgium",
                "delayIndexUrl": "https://api.flightstats.com/flex/delayindex/rest/v1/json/airports/BRU?codeType=fs",
                "elevationFeet": 184,
                "fs": "BRU",
                "iata": "BRU",
                "icao": "EBBR",
                "latitude": 50.89717,
                "localTime": "2014-07-27T16:15:39.725",
                "longitude": 4.483602,
                "name": "Brussels Airport",
                "regionName": "Europe",
                "timeZoneRegionName": "Europe/Brussels",
                "utcOffsetHours": 2.0,
                "weatherUrl": "https://api.flightstats.com/flex/weather/rest/v1/json/all/BRU?codeType=fs"
            },
            {
                "active": true,
                "city": "Berlin",
                "cityCode": "BER",
                "classification": 1,
                "countryCode": "DE",
                "countryName": "Germany",
                "delayIndexUrl": "https://api.flightstats.com/flex/delayindex/rest/v1/json/airports/TXL?codeType=fs",
                "elevationFeet": 121,
                "fs": "TXL",
                "iata": "TXL",
                "icao": "EDDT",
                "latitude": 52.553944,
                "localTime": "2014-07-27T16:15:39.795",
                "longitude": 13.291722,
                "name": "Tegel Airport",
                "regionName": "Europe",
                "timeZoneRegionName": "Europe/Berlin",
                "utcOffsetHours": 2.0,
                "weatherUrl": "https://api.flightstats.com/flex/weather/rest/v1/json/all/TXL?codeType=fs"
            },
            {
                "active": true,
                "city": "Cologne",
                "cityCode": "CGN",
                "classification": 2,
                "countryCode": "DE",
                "countryName": "Germany",
                "delayIndexUrl": "https://api.flightstats.com/flex/delayindex/rest/v1/json/airports/CGN?codeType=fs",
                "elevationFeet": 250,
                "fs": "CGN",
                "iata": "CGN",
                "icao": "EDDK",
                "latitude": 50.878363,
                "localTime": "2014-07-27T16:15:39.731",
                "longitude": 7.122224,
                "name": "Cologne Bonn Airport",
                "regionName": "Europe",
                "timeZoneRegionName": "Europe/Berlin",
                "utcOffsetHours": 2.0,
                "weatherUrl": "https://api.flightstats.com/flex/weather/rest/v1/json/all/CGN?codeType=fs"
            },
            {
                "active": true,
                "city": "Kayseri",
                "cityCode": "ASR",
                "classification": 4,
                "countryCode": "TR",
                "countryName": "Turkey",
                "delayIndexUrl": "https://api.flightstats.com/flex/delayindex/rest/v1/json/airports/ASR?codeType=fs",
                "elevationFeet": 3506,
                "fs": "ASR",
                "iata": "ASR",
                "icao": "LTAU",
                "latitude": 38.7742,
                "localTime": "2014-07-27T17:15:39.677",
                "longitude": 35.490706,
                "name": "Kayseri Airport",
                "regionName": "Europe",
                "timeZoneRegionName": "Europe/Istanbul",
                "utcOffsetHours": 3.0,
                "weatherUrl": "https://api.flightstats.com/flex/weather/rest/v1/json/all/ASR?codeType=fs"
            },
            {
                "active": true,
                "city": "Copenhagen",
                "cityCode": "CPH",
                "classification": 1,
                "countryCode": "DK",
                "countryName": "Denmark",
                "delayIndexUrl": "https://api.flightstats.com/flex/delayindex/rest/v1/json/airports/CPH?codeType=fs",
                "elevationFeet": 17,
                "fs": "CPH",
                "iata": "CPH",
                "icao": "EKCH",
                "latitude": 55.629053,
                "localTime": "2014-07-27T16:15:39.686",
                "longitude": 12.647601,
                "name": "Copenhagen Airport",
                "regionName": "Europe",
                "timeZoneRegionName": "Europe/Copenhagen",
                "utcOffsetHours": 2.0,
                "weatherUrl": "https://api.flightstats.com/flex/weather/rest/v1/json/all/CPH?codeType=fs"
            },
            {
                "active": true,
                "city": "Houston",
                "cityCode": "HOU",
                "classification": 1,
                "countryCode": "US",
                "countryName": "United States",
                "delayIndexUrl": "https://api.flightstats.com/flex/delayindex/rest/v1/json/airports/IAH?codeType=fs",
                "elevationFeet": 97,
                "faa": "IAH",
                "fs": "IAH",
                "iata": "IAH",
                "icao": "KIAH",
                "latitude": 29.983333,
                "localTime": "2014-07-27T09:15:39.692",
                "longitude": -95.34,
                "name": "George Bush Intercontinental Airport",
                "postalCode": "77032",
                "regionName": "North America",
                "stateCode": "TX",
                "street1": "16930 JFK Boulevard",
                "street2": "",
                "timeZoneRegionName": "America/Chicago",
                "utcOffsetHours": -5.0,
                "weatherUrl": "https://api.flightstats.com/flex/weather/rest/v1/json/all/IAH?codeType=fs",
                "weatherZone": "TXZ213"
            },
            {
                "active": true,
                "city": "Kuala Lumpur",
                "cityCode": "KUL",
                "classification": 1,
                "countryCode": "MY",
                "countryName": "Malaysia",
                "delayIndexUrl": "https://api.flightstats.com/flex/delayindex/rest/v1/json/airports/KUL?codeType=fs",
                "elevationFeet": 64,
                "fs": "KUL",
                "iata": "KUL",
                "icao": "WMKK",
                "latitude": 2.744344,
                "localTime": "2014-07-27T22:15:39.672",
                "longitude": 101.717259,
                "name": "Kuala Lumpur International Airport",
                "regionName": "Asia",
                "timeZoneRegionName": "Asia/Kuala_Lumpur",
                "utcOffsetHours": 8.0,
                "weatherUrl": "https://api.flightstats.com/flex/weather/rest/v1/json/all/KUL?codeType=fs"
            },
            {
                "active": true,
                "city": "Zurich",
                "cityCode": "ZRH",
                "classification": 1,
                "countryCode": "CH",
                "countryName": "Switzerland",
                "delayIndexUrl": "https://api.flightstats.com/flex/delayindex/rest/v1/json/airports/ZRH?codeType=fs",
                "elevationFeet": 1416,
                "fs": "ZRH",
                "iata": "ZRH",
                "icao": "LSZH",
                "latitude": 47.450604,
                "localTime": "2014-07-27T16:15:39.670",
                "longitude": 8.561746,
                "name": "Zurich Airport",
                "regionName": "Europe",
                "timeZoneRegionName": "Europe/Zurich",
                "utcOffsetHours": 2.0,
                "weatherUrl": "https://api.flightstats.com/flex/weather/rest/v1/json/all/ZRH?codeType=fs"
            },
            {
                "active": true,
                "city": "Dusseldorf",
                "cityCode": "DUS",
                "classification": 1,
                "countryCode": "DE",
                "countryName": "Germany",
                "delayIndexUrl": "https://api.flightstats.com/flex/delayindex/rest/v1/json/airports/DUS?codeType=fs",
                "elevationFeet": 147,
                "fs": "DUS",
                "iata": "DUS",
                "icao": "EDDL",
                "latitude": 51.278327,
                "localTime": "2014-07-27T16:15:39.736",
                "longitude": 6.76558,
                "name": "Dusseldorf International Airport",
                "regionName": "Europe",
                "timeZoneRegionName": "Europe/Berlin",
                "utcOffsetHours": 2.0,
                "weatherUrl": "https://api.flightstats.com/flex/weather/rest/v1/json/all/DUS?codeType=fs"
            },
            {
                "active": true,
                "city": "Sao Paulo",
                "cityCode": "SAO",
                "classification": 1,
                "countryCode": "BR",
                "countryName": "Brazil",
                "delayIndexUrl": "https://api.flightstats.com/flex/delayindex/rest/v1/json/airports/GRU?codeType=fs",
                "elevationFeet": 2459,
                "fs": "GRU",
                "iata": "GRU",
                "icao": "SBGR",
                "latitude": -23.425668,
                "localTime": "2014-07-27T11:15:39.739",
                "longitude": -46.481926,
                "name": "Sao Paulo-Guarulhos International Airport",
                "regionName": "South America",
                "stateCode": "SP",
                "timeZoneRegionName": "America/Sao_Paulo",
                "utcOffsetHours": -3.0,
                "weatherUrl": "https://api.flightstats.com/flex/weather/rest/v1/json/all/GRU?codeType=fs"
            }
        ]
    },
    "flightTracks": [
        {
            "arrivalAirportFsCode": "ACC",
            "bearing": 216.0097527780028,
            "carrierFsCode": "TK",
            "delayMinutes": 50,
            "departureAirportFsCode": "IST",
            "departureDate": {
                "dateLocal": "2014-07-27T15:25:00.000",
                "dateUtc": "2014-07-27T12:25:00.000Z"
            },
            "equipment": "737",
            "flightId": 410428266,
            "flightNumber": "629",
            "heading": 243.05769024150652,
            "positions": [
                {
                    "altitudeFt": 32000,
                    "date": "2014-07-27T14:14:51.000Z",
                    "lat": 39.9621,
                    "lon": 22.0112,
                    "source": "AirNav",
                    "speedMph": 482
                },
                {
                    "altitudeFt": 31975,
                    "date": "2014-07-27T14:14:36.000Z",
                    "lat": 39.98,
                    "lon": 22.0571,
                    "source": "AirNav",
                    "speedMph": 483
                },
                {
                    "altitudeFt": 31975,
                    "date": "2014-07-27T14:14:04.000Z",
                    "lat": 39.9878,
                    "lon": 22.0772,
                    "source": "AirNav",
                    "speedMph": 483
                }
            ]
        },
        {
            "arrivalAirportFsCode": "LHR",
            "bearing": 279.8915649811096,
            "carrierFsCode": "BA",
            "delayMinutes": 12,
            "departureAirportFsCode": "IST",
            "departureDate": {
                "dateLocal": "2014-07-27T13:55:00.000",
                "dateUtc": "2014-07-27T10:55:00.000Z"
            },
            "equipment": "320",
            "flightId": 410428678,
            "flightNumber": "679",
            "heading": 290.4091014708296,
            "positions": [
                {
                    "altitudeFt": 38000,
                    "date": "2014-07-27T14:15:06.000Z",
                    "lat": 51.0132,
                    "lon": 4.8483,
                    "source": "AirNav",
                    "speedMph": 501
                },
                {
                    "altitudeFt": 38000,
                    "date": "2014-07-27T14:14:44.000Z",
                    "lat": 50.9989,
                    "lon": 4.9098,
                    "source": "AirNav",
                    "speedMph": 502
                },
                {
                    "altitudeFt": 38000,
                    "date": "2014-07-27T14:14:23.000Z",
                    "lat": 50.9793,
                    "lon": 4.9936,
                    "source": "AirNav",
                    "speedMph": 502
                },
                {
                    "altitudeFt": 38000,
                    "date": "2014-07-27T14:14:00.000Z",
                    "lat": 50.9611,
                    "lon": 5.0709,
                    "source": "AirNav",
                    "speedMph": 503
                },
                {
                    "altitudeFt": 38000,
                    "date": "2014-07-27T14:13:41.000Z",
                    "lat": 50.9538,
                    "lon": 5.102,
                    "source": "AirNav",
                    "speedMph": 497
                },
                {
                    "altitudeFt": 38000,
                    "date": "2014-07-27T14:13:26.000Z",
                    "lat": 50.9451,
                    "lon": 5.1389,
                    "source": "AirNav",
                    "speedMph": 501
                },
                {
                    "altitudeFt": 37975,
                    "date": "2014-07-27T14:13:03.000Z",
                    "lat": 50.9203,
                    "lon": 5.2445,
                    "source": "AirNav",
                    "speedMph": 497
                },
                {
                    "altitudeFt": 37975,
                    "date": "2014-07-27T14:12:44.000Z",
                    "lat": 50.9007,
                    "lon": 5.3266,
                    "source": "AirNav",
                    "speedMph": 497
                },
                {
                    "altitudeFt": 38000,
                    "date": "2014-07-27T14:12:22.000Z",
                    "lat": 50.8911,
                    "lon": 5.3673,
                    "source": "AirNav",
                    "speedMph": 496
                },
                {
                    "altitudeFt": 38025,
                    "date": "2014-07-27T14:12:06.000Z",
                    "lat": 50.8841,
                    "lon": 5.3967,
                    "source": "AirNav",
                    "speedMph": 497
                },
                {
                    "altitudeFt": 38000,
                    "date": "2014-07-27T14:11:45.000Z",
                    "lat": 50.8662,
                    "lon": 5.4721,
                    "source": "AirNav",
                    "speedMph": 497
                },
                {
                    "altitudeFt": 38000,
                    "date": "2014-07-27T14:11:25.000Z",
                    "lat": 50.8497,
                    "lon": 5.541,
                    "source": "AirNav",
                    "speedMph": 496
                },
                {
                    "altitudeFt": 38000,
                    "date": "2014-07-27T14:11:00.000Z",
                    "lat": 50.8363,
                    "lon": 5.5969,
                    "source": "AirNav",
                    "speedMph": 496
                },
                {
                    "altitudeFt": 38000,
                    "date": "2014-07-27T14:10:49.000Z",
                    "lat": 50.8309,
                    "lon": 5.6192,
                    "source": "AirNav",
                    "speedMph": 496
                },
                {
                    "altitudeFt": 38000,
                    "date": "2014-07-27T14:10:27.000Z",
                    "lat": 50.8097,
                    "lon": 5.7072,
                    "source": "AirNav",
                    "speedMph": 495
                },
                {
                    "altitudeFt": 38025,
                    "date": "2014-07-27T14:10:10.000Z",
                    "lat": 50.7904,
                    "lon": 5.7869,
                    "source": "AirNav",
                    "speedMph": 495
                },
                {
                    "altitudeFt": 38025,
                    "date": "2014-07-27T14:09:44.000Z",
                    "lat": 50.7877,
                    "lon": 5.798,
                    "source": "AirNav",
                    "speedMph": 495
                },
                {
                    "altitudeFt": 38000,
                    "date": "2014-07-27T14:09:36.000Z",
                    "lat": 50.7707,
                    "lon": 5.8678,
                    "source": "AirNav",
                    "speedMph": 496
                },
                {
                    "altitudeFt": 38000,
                    "date": "2014-07-27T14:09:05.000Z",
                    "lat": 50.7496,
                    "lon": 5.9541,
                    "source": "AirNav",
                    "speedMph": 497
                },
                {
                    "altitudeFt": 37975,
                    "date": "2014-07-27T14:08:47.000Z",
                    "lat": 50.7407,
                    "lon": 5.9904,
                    "source": "AirNav",
                    "speedMph": 496
                },
                {
                    "altitudeFt": 37975,
                    "date": "2014-07-27T14:08:24.000Z",
                    "lat": 50.7284,
                    "lon": 6.0408,
                    "source": "AirNav",
                    "speedMph": 496
                },
                {
                    "altitudeFt": 37950,
                    "date": "2014-07-27T14:08:02.000Z",
                    "lat": 50.7092,
                    "lon": 6.1192,
                    "source": "AirNav",
                    "speedMph": 495
                },
                {
                    "altitudeFt": 37950,
                    "date": "2014-07-27T14:07:45.000Z",
                    "lat": 50.7037,
                    "lon": 6.1414,
                    "source": "AirNav",
                    "speedMph": 496
                },
                {
                    "altitudeFt": 37975,
                    "date": "2014-07-27T14:07:22.000Z",
                    "lat": 50.684,
                    "lon": 6.2213,
                    "source": "AirNav",
                    "speedMph": 495
                },
                {
                    "altitudeFt": 38000,
                    "date": "2014-07-27T14:07:05.000Z",
                    "lat": 50.6709,
                    "lon": 6.2743,
                    "source": "AirNav",
                    "speedMph": 496
                },
                {
                    "altitudeFt": 38000,
                    "date": "2014-07-27T14:06:46.000Z",
                    "lat": 50.6553,
                    "lon": 6.3368,
                    "source": "AirNav",
                    "speedMph": 497
                },
                {
                    "altitudeFt": 38025,
                    "date": "2014-07-27T14:06:26.000Z",
                    "lat": 50.6369,
                    "lon": 6.4106,
                    "source": "AirNav",
                    "speedMph": 498
                },
                {
                    "altitudeFt": 38025,
                    "date": "2014-07-27T14:06:07.000Z",
                    "lat": 50.6298,
                    "lon": 6.4393,
                    "source": "AirNav",
                    "speedMph": 501
                },
                {
                    "altitudeFt": 38025,
                    "date": "2014-07-27T14:05:44.000Z",
                    "lat": 50.6086,
                    "lon": 6.524,
                    "source": "AirNav",
                    "speedMph": 502
                },
                {
                    "altitudeFt": 38025,
                    "date": "2014-07-27T14:05:29.000Z",
                    "lat": 50.5999,
                    "lon": 6.5588,
                    "source": "AirNav",
                    "speedMph": 503
                },
                {
                    "altitudeFt": 38000,
                    "date": "2014-07-27T14:05:03.000Z",
                    "lat": 50.5807,
                    "lon": 6.6349,
                    "source": "AirNav",
                    "speedMph": 505
                },
                {
                    "altitudeFt": 37975,
                    "date": "2014-07-27T14:04:40.000Z",
                    "lat": 50.5649,
                    "lon": 6.6976,
                    "source": "AirNav",
                    "speedMph": 505
                },
                {
                    "altitudeFt": 37975,
                    "date": "2014-07-27T14:04:31.000Z",
                    "lat": 50.5604,
                    "lon": 6.7153,
                    "source": "AirNav",
                    "speedMph": 505
                },
                {
                    "altitudeFt": 38000,
                    "date": "2014-07-27T14:04:04.000Z",
                    "lat": 50.5423,
                    "lon": 6.7869,
                    "source": "AirNav",
                    "speedMph": 506
                },
                {
                    "altitudeFt": 38000,
                    "date": "2014-07-27T14:03:45.000Z",
                    "lat": 50.5251,
                    "lon": 6.8544,
                    "source": "AirNav",
                    "speedMph": 508
                },
                {
                    "altitudeFt": 38025,
                    "date": "2014-07-27T14:03:26.000Z",
                    "lat": 50.5027,
                    "lon": 6.9427,
                    "source": "AirNav",
                    "speedMph": 508
                },
                {
                    "altitudeFt": 38050,
                    "date": "2014-07-27T14:03:13.000Z",
                    "lat": 50.4997,
                    "lon": 6.9546,
                    "source": "AirNav",
                    "speedMph": 508
                },
                {
                    "altitudeFt": 38050,
                    "date": "2014-07-27T14:02:49.000Z",
                    "lat": 50.4807,
                    "lon": 7.0281,
                    "source": "AirNav",
                    "speedMph": 509
                },
                {
                    "altitudeFt": 38050,
                    "date": "2014-07-27T14:02:35.000Z",
                    "lat": 50.4748,
                    "lon": 7.0512,
                    "source": "AirNav",
                    "speedMph": 509
                },
                {
                    "altitudeFt": 38025,
                    "date": "2014-07-27T14:02:06.000Z",
                    "lat": 50.4483,
                    "lon": 7.154,
                    "source": "AirNav",
                    "speedMph": 511
                },
                {
                    "altitudeFt": 38025,
                    "date": "2014-07-27T14:01:45.000Z",
                    "lat": 50.4322,
                    "lon": 7.2165,
                    "source": "AirNav",
                    "speedMph": 510
                },
                {
                    "altitudeFt": 38025,
                    "date": "2014-07-27T14:01:32.000Z",
                    "lat": 50.4238,
                    "lon": 7.2493,
                    "source": "AirNav",
                    "speedMph": 510
                },
                {
                    "altitudeFt": 38000,
                    "date": "2014-07-27T14:01:07.000Z",
                    "lat": 50.4017,
                    "lon": 7.3341,
                    "source": "AirNav",
                    "speedMph": 510
                },
                {
                    "altitudeFt": 38000,
                    "date": "2014-07-27T14:00:51.000Z",
                    "lat": 50.3896,
                    "lon": 7.3804,
                    "source": "AirNav",
                    "speedMph": 510
                },
                {
                    "altitudeFt": 37975,
                    "date": "2014-07-27T14:00:32.000Z",
                    "lat": 50.3788,
                    "lon": 7.4218,
                    "source": "AirNav",
                    "speedMph": 509
                },
                {
                    "altitudeFt": 38000,
                    "date": "2014-07-27T14:00:08.000Z",
                    "lat": 50.3608,
                    "lon": 7.4909,
                    "source": "AirNav",
                    "speedMph": 508
                },
                {
                    "altitudeFt": 37975,
                    "date": "2014-07-27T13:59:40.000Z",
                    "lat": 50.3388,
                    "lon": 7.5743,
                    "source": "AirNav",
                    "speedMph": 505
                },
                {
                    "altitudeFt": 37975,
                    "date": "2014-07-27T13:59:30.000Z",
                    "lat": 50.3286,
                    "lon": 7.613,
                    "source": "AirNav",
                    "speedMph": 505
                },
                {
                    "altitudeFt": 37950,
                    "date": "2014-07-27T13:59:04.000Z",
                    "lat": 50.3071,
                    "lon": 7.695,
                    "source": "AirNav",
                    "speedMph": 505
                },
                {
                    "altitudeFt": 37975,
                    "date": "2014-07-27T13:58:46.000Z",
                    "lat": 50.2939,
                    "lon": 7.7446,
                    "source": "AirNav",
                    "speedMph": 503
                },
                {
                    "altitudeFt": 37975,
                    "date": "2014-07-27T13:58:33.000Z",
                    "lat": 50.2865,
                    "lon": 7.7726,
                    "source": "AirNav",
                    "speedMph": 503
                },
                {
                    "altitudeFt": 38000,
                    "date": "2014-07-27T13:58:03.000Z",
                    "lat": 50.2578,
                    "lon": 7.8811,
                    "source": "AirNav",
                    "speedMph": 504
                },
                {
                    "altitudeFt": 38000,
                    "date": "2014-07-27T13:57:46.000Z",
                    "lat": 50.2492,
                    "lon": 7.9132,
                    "source": "AirNav",
                    "speedMph": 504
                },
                {
                    "altitudeFt": 38000,
                    "date": "2014-07-27T13:57:26.000Z",
                    "lat": 50.23,
                    "lon": 7.985,
                    "source": "AirNav",
                    "speedMph": 505
                },
                {
                    "altitudeFt": 38000,
                    "date": "2014-07-27T13:57:02.000Z",
                    "lat": 50.2071,
                    "lon": 8.0704,
                    "source": "AirNav",
                    "speedMph": 509
                },
                {
                    "altitudeFt": 38025,
                    "date": "2014-07-27T13:56:30.000Z",
                    "lat": 50.1918,
                    "lon": 8.1273,
                    "source": "AirNav",
                    "speedMph": 508
                },
                {
                    "altitudeFt": 38000,
                    "date": "2014-07-27T13:55:57.000Z",
                    "lat": 50.1596,
                    "lon": 8.2464,
                    "source": "AirNav",
                    "speedMph": 510
                },
                {
                    "altitudeFt": 38025,
                    "date": "2014-07-27T13:55:41.000Z",
                    "lat": 50.1488,
                    "lon": 8.2864,
                    "source": "AirNav",
                    "speedMph": 510
                },
                {
                    "altitudeFt": 38050,
                    "date": "2014-07-27T13:55:21.000Z",
                    "lat": 50.1202,
                    "lon": 8.3916,
                    "source": "AirNav",
                    "speedMph": 512
                },
                {
                    "altitudeFt": 38025,
                    "date": "2014-07-27T13:55:03.000Z",
                    "lat": 50.1138,
                    "lon": 8.4152,
                    "source": "AirNav",
                    "speedMph": 513
                },
                {
                    "altitudeFt": 38025,
                    "date": "2014-07-27T13:54:27.000Z",
                    "lat": 50.088,
                    "lon": 8.5091,
                    "source": "AirNav",
                    "speedMph": 516
                },
                {
                    "altitudeFt": 38025,
                    "date": "2014-07-27T13:54:06.000Z",
                    "lat": 50.0676,
                    "lon": 8.5835,
                    "source": "AirNav",
                    "speedMph": 514
                },
                {
                    "altitudeFt": 38025,
                    "date": "2014-07-27T13:54:00.000Z",
                    "lat": 50.0558,
                    "lon": 8.6266,
                    "source": "AirNav",
                    "speedMph": 516
                },
                {
                    "altitudeFt": 38000,
                    "date": "2014-07-27T13:53:39.000Z",
                    "lat": 50.0537,
                    "lon": 8.6343,
                    "source": "AirNav",
                    "speedMph": 513
                },
                {
                    "altitudeFt": 38000,
                    "date": "2014-07-27T13:53:21.000Z",
                    "lat": 50.029,
                    "lon": 8.7238,
                    "source": "AirNav",
                    "speedMph": 512
                },
                {
                    "altitudeFt": 38000,
                    "date": "2014-07-27T13:52:56.000Z",
                    "lat": 50.0183,
                    "lon": 8.7625,
                    "source": "AirNav",
                    "speedMph": 511
                },
                {
                    "altitudeFt": 38000,
                    "date": "2014-07-27T13:52:34.000Z",
                    "lat": 49.9988,
                    "lon": 8.8329,
                    "source": "AirNav",
                    "speedMph": 511
                },
                {
                    "altitudeFt": 38000,
                    "date": "2014-07-27T13:52:20.000Z",
                    "lat": 49.987,
                    "lon": 8.8755,
                    "source": "AirNav",
                    "speedMph": 511
                },
                {
                    "altitudeFt": 38000,
                    "date": "2014-07-27T13:51:59.000Z",
                    "lat": 49.9679,
                    "lon": 8.9437,
                    "source": "AirNav",
                    "speedMph": 510
                },
                {
                    "altitudeFt": 38000,
                    "date": "2014-07-27T13:51:31.000Z",
                    "lat": 49.9462,
                    "lon": 9.0218,
                    "source": "AirNav",
                    "speedMph": 509
                },
                {
                    "altitudeFt": 38000,
                    "date": "2014-07-27T13:51:18.000Z",
                    "lat": 49.934,
                    "lon": 9.0654,
                    "source": "AirNav",
                    "speedMph": 509
                },
                {
                    "altitudeFt": 37975,
                    "date": "2014-07-27T13:50:55.000Z",
                    "lat": 49.9196,
                    "lon": 9.1164,
                    "source": "AirNav",
                    "speedMph": 509
                },
                {
                    "altitudeFt": 37975,
                    "date": "2014-07-27T13:50:36.000Z",
                    "lat": 49.9013,
                    "lon": 9.1813,
                    "source": "AirNav",
                    "speedMph": 509
                },
                {
                    "altitudeFt": 38000,
                    "date": "2014-07-27T13:50:19.000Z",
                    "lat": 49.8909,
                    "lon": 9.2183,
                    "source": "AirNav",
                    "speedMph": 506
                },
                {
                    "altitudeFt": 38000,
                    "date": "2014-07-27T13:49:59.000Z",
                    "lat": 49.8731,
                    "lon": 9.2813,
                    "source": "AirNav",
                    "speedMph": 508
                },
                {
                    "altitudeFt": 38025,
                    "date": "2014-07-27T13:49:36.000Z",
                    "lat": 49.8475,
                    "lon": 9.3718,
                    "source": "AirNav",
                    "speedMph": 508
                },
                {
                    "altitudeFt": 38025,
                    "date": "2014-07-27T13:49:24.000Z",
                    "lat": 49.8225,
                    "lon": 9.4594,
                    "source": "AirNav",
                    "speedMph": 509
                },
                {
                    "altitudeFt": 38025,
                    "date": "2014-07-27T13:48:56.000Z",
                    "lat": 49.8212,
                    "lon": 9.464,
                    "source": "AirNav",
                    "speedMph": 508
                },
                {
                    "altitudeFt": 38025,
                    "date": "2014-07-27T13:48:41.000Z",
                    "lat": 49.7881,
                    "lon": 9.5799,
                    "source": "AirNav",
                    "speedMph": 508
                },
                {
                    "altitudeFt": 38025,
                    "date": "2014-07-27T13:48:19.000Z",
                    "lat": 49.7724,
                    "lon": 9.6346,
                    "source": "AirNav",
                    "speedMph": 509
                },
                {
                    "altitudeFt": 38025,
                    "date": "2014-07-27T13:48:03.000Z",
                    "lat": 49.7724,
                    "lon": 9.6346,
                    "source": "AirNav",
                    "speedMph": 508
                },
                {
                    "altitudeFt": 37975,
                    "date": "2014-07-27T13:47:33.000Z",
                    "lat": 49.7431,
                    "lon": 9.7364,
                    "source": "AirNav",
                    "speedMph": 508
                },
                {
                    "altitudeFt": 37975,
                    "date": "2014-07-27T13:47:15.000Z",
                    "lat": 49.7323,
                    "lon": 9.7737,
                    "source": "AirNav",
                    "speedMph": 508
                },
                {
                    "altitudeFt": 37975,
                    "date": "2014-07-27T13:46:53.000Z",
                    "lat": 49.7033,
                    "lon": 9.8745,
                    "source": "AirNav",
                    "speedMph": 505
                },
                {
                    "altitudeFt": 37950,
                    "date": "2014-07-27T13:46:32.000Z",
                    "lat": 49.7001,
                    "lon": 9.8853,
                    "source": "AirNav",
                    "speedMph": 505
                },
                {
                    "altitudeFt": 37950,
                    "date": "2014-07-27T13:46:19.000Z",
                    "lat": 49.69,
                    "lon": 9.9201,
                    "source": "AirNav",
                    "speedMph": 502
                },
                {
                    "altitudeFt": 37950,
                    "date": "2014-07-27T13:45:56.000Z",
                    "lat": 49.6746,
                    "lon": 9.9729,
                    "source": "AirNav",
                    "speedMph": 502
                },
                {
                    "altitudeFt": 37950,
                    "date": "2014-07-27T13:45:18.000Z",
                    "lat": 49.6257,
                    "lon": 10.1404,
                    "source": "AirNav",
                    "speedMph": 502
                },
                {
                    "altitudeFt": 37975,
                    "date": "2014-07-27T13:44:59.000Z",
                    "lat": 49.6213,
                    "lon": 10.1557,
                    "source": "AirNav",
                    "speedMph": 502
                },
                {
                    "altitudeFt": 38000,
                    "date": "2014-07-27T13:44:37.000Z",
                    "lat": 49.6018,
                    "lon": 10.2218,
                    "source": "AirNav",
                    "speedMph": 503
                },
                {
                    "altitudeFt": 38025,
                    "date": "2014-07-27T13:44:13.000Z",
                    "lat": 49.5764,
                    "lon": 10.308,
                    "source": "AirNav",
                    "speedMph": 508
                },
                {
                    "altitudeFt": 38025,
                    "date": "2014-07-27T13:43:55.000Z",
                    "lat": 49.5604,
                    "lon": 10.3622,
                    "source": "AirNav",
                    "speedMph": 508
                },
                {
                    "altitudeFt": 38025,
                    "date": "2014-07-27T13:43:39.000Z",
                    "lat": 49.5491,
                    "lon": 10.4005,
                    "source": "AirNav",
                    "speedMph": 510
                },
                {
                    "altitudeFt": 38025,
                    "date": "2014-07-27T13:43:31.000Z",
                    "lat": 49.5491,
                    "lon": 10.4005,
                    "source": "AirNav",
                    "speedMph": 510
                },
                {
                    "altitudeFt": 38025,
                    "date": "2014-07-27T13:43:01.000Z",
                    "lat": 49.5199,
                    "lon": 10.4988,
                    "source": "AirNav",
                    "speedMph": 513
                },
                {
                    "altitudeFt": 38025,
                    "date": "2014-07-27T13:42:34.000Z",
                    "lat": 49.4964,
                    "lon": 10.5778,
                    "source": "AirNav",
                    "speedMph": 514
                },
                {
                    "altitudeFt": 38025,
                    "date": "2014-07-27T13:42:11.000Z",
                    "lat": 49.4686,
                    "lon": 10.6708,
                    "source": "AirNav",
                    "speedMph": 517
                },
                {
                    "altitudeFt": 38025,
                    "date": "2014-07-27T13:41:51.000Z",
                    "lat": 49.4602,
                    "lon": 10.6991,
                    "source": "AirNav",
                    "speedMph": 517
                },
                {
                    "altitudeFt": 38025,
                    "date": "2014-07-27T13:41:46.000Z",
                    "lat": 49.4602,
                    "lon": 10.6991,
                    "source": "AirNav",
                    "speedMph": 517
                },
                {
                    "altitudeFt": 38025,
                    "date": "2014-07-27T13:41:25.000Z",
                    "lat": 49.423,
                    "lon": 10.8227,
                    "source": "AirNav",
                    "speedMph": 517
                },
                {
                    "altitudeFt": 37975,
                    "date": "2014-07-27T13:40:50.000Z",
                    "lat": 49.4008,
                    "lon": 10.896,
                    "source": "AirNav",
                    "speedMph": 517
                },
                {
                    "altitudeFt": 37975,
                    "date": "2014-07-27T13:40:43.000Z",
                    "lat": 49.4008,
                    "lon": 10.896,
                    "source": "AirNav",
                    "speedMph": 516
                },
                {
                    "altitudeFt": 38000,
                    "date": "2014-07-27T13:40:27.000Z",
                    "lat": 49.3781,
                    "lon": 10.9712,
                    "source": "AirNav",
                    "speedMph": 514
                },
                {
                    "altitudeFt": 37975,
                    "date": "2014-07-27T13:40:02.000Z",
                    "lat": 49.3677,
                    "lon": 11.0056,
                    "source": "AirNav",
                    "speedMph": 511
                },
                {
                    "altitudeFt": 37975,
                    "date": "2014-07-27T13:39:38.000Z",
                    "lat": 49.3509,
                    "lon": 11.061,
                    "source": "AirNav",
                    "speedMph": 512
                },
                {
                    "altitudeFt": 38000,
                    "date": "2014-07-27T13:39:08.000Z",
                    "lat": 49.3172,
                    "lon": 11.1715,
                    "source": "AirNav",
                    "speedMph": 512
                },
                {
                    "altitudeFt": 38000,
                    "date": "2014-07-27T13:38:57.000Z",
                    "lat": 49.3172,
                    "lon": 11.1715,
                    "source": "AirNav",
                    "speedMph": 511
                },
                {
                    "altitudeFt": 38025,
                    "date": "2014-07-27T13:38:35.000Z",
                    "lat": 49.2881,
                    "lon": 11.2664,
                    "source": "AirNav",
                    "speedMph": 511
                },
                {
                    "altitudeFt": 38000,
                    "date": "2014-07-27T13:38:17.000Z",
                    "lat": 49.2778,
                    "lon": 11.2999,
                    "source": "AirNav",
                    "speedMph": 512
                },
                {
                    "altitudeFt": 38000,
                    "date": "2014-07-27T13:37:54.000Z",
                    "lat": 49.2543,
                    "lon": 11.3761,
                    "source": "AirNav",
                    "speedMph": 513
                },
                {
                    "altitudeFt": 38000,
                    "date": "2014-07-27T13:37:39.000Z",
                    "lat": 49.2331,
                    "lon": 11.445,
                    "source": "AirNav",
                    "speedMph": 512
                },
                {
                    "altitudeFt": 38000,
                    "date": "2014-07-27T13:37:18.000Z",
                    "lat": 49.2151,
                    "lon": 11.503,
                    "source": "AirNav",
                    "speedMph": 512
                },
                {
                    "altitudeFt": 38050,
                    "date": "2014-07-27T13:36:58.000Z",
                    "lat": 49.2089,
                    "lon": 11.5229,
                    "source": "AirNav",
                    "speedMph": 512
                },
                {
                    "altitudeFt": 38000,
                    "date": "2014-07-27T13:36:29.000Z",
                    "lat": 49.1851,
                    "lon": 11.5994,
                    "source": "AirNav",
                    "speedMph": 514
                },
                {
                    "altitudeFt": 37975,
                    "date": "2014-07-27T13:36:02.000Z",
                    "lat": 49.1545,
                    "lon": 11.697,
                    "source": "AirNav",
                    "speedMph": 513
                },
                {
                    "altitudeFt": 38000,
                    "date": "2014-07-27T13:35:20.000Z",
                    "lat": 49.1151,
                    "lon": 11.8225,
                    "source": "AirNav",
                    "speedMph": 511
                },
                {
                    "altitudeFt": 38000,
                    "date": "2014-07-27T13:35:20.000Z",
                    "lat": 49.1151,
                    "lon": 11.8225,
                    "source": "AirNav",
                    "speedMph": 511
                },
                {
                    "altitudeFt": 38000,
                    "date": "2014-07-27T13:35:00.000Z",
                    "lat": 49.0972,
                    "lon": 11.8794,
                    "source": "AirNav",
                    "speedMph": 511
                },
                {
                    "altitudeFt": 38000,
                    "date": "2014-07-27T13:34:36.000Z",
                    "lat": 49.0872,
                    "lon": 11.9109,
                    "source": "AirNav",
                    "speedMph": 512
                },
                {
                    "altitudeFt": 38000,
                    "date": "2014-07-27T13:34:16.000Z",
                    "lat": 49.0671,
                    "lon": 11.9745,
                    "source": "AirNav",
                    "speedMph": 512
                },
                {
                    "altitudeFt": 38000,
                    "date": "2014-07-27T13:33:59.000Z",
                    "lat": 49.0482,
                    "lon": 12.0342,
                    "source": "AirNav",
                    "speedMph": 511
                },
                {
                    "altitudeFt": 38000,
                    "date": "2014-07-27T13:33:25.000Z",
                    "lat": 49.0217,
                    "lon": 12.1174,
                    "source": "AirNav",
                    "speedMph": 511
                },
                {
                    "altitudeFt": 38025,
                    "date": "2014-07-27T13:33:16.000Z",
                    "lat": 49.0007,
                    "lon": 12.183,
                    "source": "AirNav",
                    "speedMph": 511
                },
                {
                    "altitudeFt": 38025,
                    "date": "2014-07-27T13:32:58.000Z",
                    "lat": 48.9877,
                    "lon": 12.224,
                    "source": "AirNav",
                    "speedMph": 511
                },
                {
                    "altitudeFt": 38000,
                    "date": "2014-07-27T13:32:40.000Z",
                    "lat": 48.97,
                    "lon": 12.2791,
                    "source": "AirNav",
                    "speedMph": 509
                },
                {
                    "altitudeFt": 38025,
                    "date": "2014-07-27T13:32:19.000Z",
                    "lat": 48.9612,
                    "lon": 12.3066,
                    "source": "AirNav",
                    "speedMph": 512
                },
                {
                    "altitudeFt": 38025,
                    "date": "2014-07-27T13:31:43.000Z",
                    "lat": 48.9339,
                    "lon": 12.3913,
                    "source": "AirNav",
                    "speedMph": 513
                },
                {
                    "altitudeFt": 38000,
                    "date": "2014-07-27T13:31:39.000Z",
                    "lat": 48.9203,
                    "lon": 12.4334,
                    "source": "AirNav",
                    "speedMph": 512
                },
                {
                    "altitudeFt": 38025,
                    "date": "2014-07-27T13:31:16.000Z",
                    "lat": 48.8954,
                    "lon": 12.5108,
                    "source": "AirNav",
                    "speedMph": 512
                },
                {
                    "altitudeFt": 38000,
                    "date": "2014-07-27T13:30:54.000Z",
                    "lat": 48.8732,
                    "lon": 12.579,
                    "source": "AirNav",
                    "speedMph": 512
                },
                {
                    "altitudeFt": 38000,
                    "date": "2014-07-27T13:30:38.000Z",
                    "lat": 48.8609,
                    "lon": 12.617,
                    "source": "AirNav",
                    "speedMph": 512
                },
                {
                    "altitudeFt": 37975,
                    "date": "2014-07-27T13:30:13.000Z",
                    "lat": 48.842,
                    "lon": 12.675,
                    "source": "AirNav",
                    "speedMph": 512
                },
                {
                    "altitudeFt": 37975,
                    "date": "2014-07-27T13:29:57.000Z",
                    "lat": 48.8271,
                    "lon": 12.7207,
                    "source": "AirNav",
                    "speedMph": 511
                },
                {
                    "altitudeFt": 37950,
                    "date": "2014-07-27T13:29:41.000Z",
                    "lat": 48.8179,
                    "lon": 12.7485,
                    "source": "AirNav",
                    "speedMph": 511
                },
                {
                    "altitudeFt": 37975,
                    "date": "2014-07-27T13:29:19.000Z",
                    "lat": 48.787,
                    "lon": 12.843,
                    "source": "AirNav",
                    "speedMph": 510
                },
                {
                    "altitudeFt": 37975,
                    "date": "2014-07-27T13:28:53.000Z",
                    "lat": 48.7718,
                    "lon": 12.8896,
                    "source": "AirNav",
                    "speedMph": 509
                },
                {
                    "altitudeFt": 37975,
                    "date": "2014-07-27T13:28:36.000Z",
                    "lat": 48.7592,
                    "lon": 12.9277,
                    "source": "AirNav",
                    "speedMph": 509
                },
                {
                    "altitudeFt": 38025,
                    "date": "2014-07-27T13:28:15.000Z",
                    "lat": 48.742,
                    "lon": 12.9798,
                    "source": "AirNav",
                    "speedMph": 510
                },
                {
                    "altitudeFt": 38025,
                    "date": "2014-07-27T13:28:04.000Z",
                    "lat": 48.716,
                    "lon": 13.0585,
                    "source": "AirNav",
                    "speedMph": 512
                },
                {
                    "altitudeFt": 38000,
                    "date": "2014-07-27T13:27:44.000Z",
                    "lat": 48.712,
                    "lon": 13.0707,
                    "source": "AirNav",
                    "speedMph": 512
                },
                {
                    "altitudeFt": 37975,
                    "date": "2014-07-27T13:27:03.000Z",
                    "lat": 48.6629,
                    "lon": 13.2183,
                    "source": "AirNav",
                    "speedMph": 517
                },
                {
                    "altitudeFt": 37975,
                    "date": "2014-07-27T13:27:01.000Z",
                    "lat": 48.6629,
                    "lon": 13.2183,
                    "source": "AirNav",
                    "speedMph": 517
                },
                {
                    "altitudeFt": 37950,
                    "date": "2014-07-27T13:26:34.000Z",
                    "lat": 48.6325,
                    "lon": 13.3093,
                    "source": "AirNav",
                    "speedMph": 517
                },
                {
                    "altitudeFt": 37950,
                    "date": "2014-07-27T13:26:08.000Z",
                    "lat": 48.6161,
                    "lon": 13.3584,
                    "source": "AirNav",
                    "speedMph": 517
                },
                {
                    "altitudeFt": 37950,
                    "date": "2014-07-27T13:26:00.000Z",
                    "lat": 48.6062,
                    "lon": 13.3879,
                    "source": "AirNav",
                    "speedMph": 517
                },
                {
                    "altitudeFt": 37975,
                    "date": "2014-07-27T13:25:35.000Z",
                    "lat": 48.5959,
                    "lon": 13.4187,
                    "source": "AirNav",
                    "speedMph": 517
                },
                {
                    "altitudeFt": 37975,
                    "date": "2014-07-27T13:25:17.000Z",
                    "lat": 48.576,
                    "lon": 13.4778,
                    "source": "AirNav",
                    "speedMph": 517
                },
                {
                    "altitudeFt": 38000,
                    "date": "2014-07-27T13:24:57.000Z",
                    "lat": 48.5559,
                    "lon": 13.5376,
                    "source": "AirNav",
                    "speedMph": 520
                },
                {
                    "altitudeFt": 38025,
                    "date": "2014-07-27T13:24:35.000Z",
                    "lat": 48.5237,
                    "lon": 13.6329,
                    "source": "AirNav",
                    "speedMph": 521
                },
                {
                    "altitudeFt": 38000,
                    "date": "2014-07-27T13:24:15.000Z",
                    "lat": 48.5099,
                    "lon": 13.6734,
                    "source": "AirNav",
                    "speedMph": 525
                },
                {
                    "altitudeFt": 38000,
                    "date": "2014-07-27T13:24:02.000Z",
                    "lat": 48.4945,
                    "lon": 13.7186,
                    "source": "AirNav",
                    "speedMph": 526
                },
                {
                    "altitudeFt": 38025,
                    "date": "2014-07-27T13:23:31.000Z",
                    "lat": 48.4737,
                    "lon": 13.7782,
                    "source": "AirNav",
                    "speedMph": 527
                },
                {
                    "altitudeFt": 38050,
                    "date": "2014-07-27T13:23:18.000Z",
                    "lat": 48.4619,
                    "lon": 13.8083,
                    "source": "AirNav",
                    "speedMph": 526
                },
                {
                    "altitudeFt": 38000,
                    "date": "2014-07-27T13:22:45.000Z",
                    "lat": 48.409,
                    "lon": 13.9376,
                    "source": "AirNav",
                    "speedMph": 531
                },
                {
                    "altitudeFt": 38000,
                    "date": "2014-07-27T13:22:23.000Z",
                    "lat": 48.375,
                    "lon": 14.02,
                    "source": "AirNav",
                    "speedMph": 532
                },
                {
                    "altitudeFt": 37975,
                    "date": "2014-07-27T13:22:16.000Z",
                    "lat": 48.375,
                    "lon": 14.02,
                    "source": "AirNav",
                    "speedMph": 532
                },
                {
                    "altitudeFt": 38000,
                    "date": "2014-07-27T13:21:55.000Z",
                    "lat": 48.3618,
                    "lon": 14.0521,
                    "source": "AirNav",
                    "speedMph": 532
                },
                {
                    "altitudeFt": 38000,
                    "date": "2014-07-27T13:21:27.000Z",
                    "lat": 48.3368,
                    "lon": 14.1127,
                    "source": "AirNav",
                    "speedMph": 532
                },
                {
                    "altitudeFt": 38025,
                    "date": "2014-07-27T13:20:34.000Z",
                    "lat": 48.2406,
                    "lon": 14.3562,
                    "source": "AirNav",
                    "speedMph": 534
                },
                {
                    "altitudeFt": 38000,
                    "date": "2014-07-27T13:19:58.000Z",
                    "lat": 48.2406,
                    "lon": 14.3562,
                    "source": "AirNav",
                    "speedMph": 534
                },
                {
                    "altitudeFt": 38000,
                    "date": "2014-07-27T13:19:29.000Z",
                    "lat": 48.2269,
                    "lon": 14.4492,
                    "source": "AirNav",
                    "speedMph": 534
                },
                {
                    "altitudeFt": 37975,
                    "date": "2014-07-27T13:19:21.000Z",
                    "lat": 48.2229,
                    "lon": 14.4943,
                    "source": "AirNav",
                    "speedMph": 532
                },
                {
                    "altitudeFt": 38050,
                    "date": "2014-07-27T13:16:48.000Z",
                    "lat": 48.1651,
                    "lon": 15.08,
                    "source": "AirNav",
                    "speedMph": 532
                },
                {
                    "altitudeFt": 38050,
                    "date": "2014-07-27T13:16:20.000Z",
                    "lat": 48.1651,
                    "lon": 15.08,
                    "source": "AirNav",
                    "speedMph": 532
                },
                {
                    "altitudeFt": 38025,
                    "date": "2014-07-27T13:15:35.000Z",
                    "lat": 48.1407,
                    "lon": 15.2792,
                    "source": "AirNav",
                    "speedMph": 533
                },
                {
                    "altitudeFt": 38000,
                    "date": "2014-07-27T13:13:37.000Z",
                    "lat": 48.0646,
                    "lon": 15.5761,
                    "source": "AirNav",
                    "speedMph": 526
                },
                {
                    "altitudeFt": 37925,
                    "date": "2014-07-27T13:12:37.000Z",
                    "lat": 48.0121,
                    "lon": 15.7758,
                    "source": "AirNav",
                    "speedMph": 517
                },
                {
                    "altitudeFt": 37925,
                    "date": "2014-07-27T13:12:16.000Z",
                    "lat": 48.0121,
                    "lon": 15.7758,
                    "source": "AirNav",
                    "speedMph": 517
                },
                {
                    "altitudeFt": 37950,
                    "date": "2014-07-27T13:11:47.000Z",
                    "lat": 47.989,
                    "lon": 15.8635,
                    "source": "AirNav",
                    "speedMph": 512
                },
                {
                    "altitudeFt": 37950,
                    "date": "2014-07-27T13:11:37.000Z",
                    "lat": 47.9816,
                    "lon": 15.8914,
                    "source": "AirNav",
                    "speedMph": 511
                },
                {
                    "altitudeFt": 37975,
                    "date": "2014-07-27T13:11:06.000Z",
                    "lat": 47.9572,
                    "lon": 15.9833,
                    "source": "AirNav",
                    "speedMph": 510
                },
                {
                    "altitudeFt": 38000,
                    "date": "2014-07-27T13:10:42.000Z",
                    "lat": 47.9373,
                    "lon": 16.058,
                    "source": "AirNav",
                    "speedMph": 509
                },
                {
                    "altitudeFt": 38025,
                    "date": "2014-07-27T13:09:48.000Z",
                    "lat": 47.8985,
                    "lon": 16.2021,
                    "source": "AirNav",
                    "speedMph": 512
                },
                {
                    "altitudeFt": 38050,
                    "date": "2014-07-27T13:08:52.000Z",
                    "lat": 47.845,
                    "lon": 16.4008,
                    "source": "AirNav",
                    "speedMph": 514
                },
                {
                    "date": "2014-07-27T13:08:52.000Z",
                    "lat": 47.845,
                    "lon": 16.4008,
                    "source": "AirNav"
                },
                {
                    "altitudeFt": 38000,
                    "date": "2014-07-27T13:08:38.000Z",
                    "lat": 47.8368,
                    "lon": 16.4315,
                    "source": "AirNav",
                    "speedMph": 514
                },
                {
                    "altitudeFt": 38000,
                    "date": "2014-07-27T13:08:07.000Z",
                    "lat": 47.8202,
                    "lon": 16.4931,
                    "source": "AirNav",
                    "speedMph": 514
                },
                {
                    "altitudeFt": 38000,
                    "date": "2014-07-27T13:07:26.000Z",
                    "lat": 47.7914,
                    "lon": 16.5995,
                    "source": "AirNav",
                    "speedMph": 513
                },
                {
                    "altitudeFt": 37975,
                    "date": "2014-07-27T13:07:16.000Z",
                    "lat": 47.7838,
                    "lon": 16.6272,
                    "source": "AirNav",
                    "speedMph": 512
                },
                {
                    "altitudeFt": 37975,
                    "date": "2014-07-27T13:06:25.000Z",
                    "lat": 47.7433,
                    "lon": 16.7758,
                    "source": "AirNav",
                    "speedMph": 509
                },
                {
                    "altitudeFt": 37975,
                    "date": "2014-07-27T13:06:18.000Z",
                    "lat": 47.7321,
                    "lon": 16.8169,
                    "source": "AirNav",
                    "speedMph": 510
                },
                {
                    "altitudeFt": 37950,
                    "date": "2014-07-27T13:05:50.000Z",
                    "lat": 47.7133,
                    "lon": 16.8854,
                    "source": "AirNav",
                    "speedMph": 510
                },
                {
                    "altitudeFt": 38000,
                    "date": "2014-07-27T13:04:50.000Z",
                    "lat": 47.6252,
                    "lon": 17.1519,
                    "source": "AirNav",
                    "speedMph": 506
                },
                {
                    "altitudeFt": 38000,
                    "date": "2014-07-27T13:04:28.000Z",
                    "lat": 47.6252,
                    "lon": 17.1519,
                    "source": "AirNav",
                    "speedMph": 506
                },
                {
                    "altitudeFt": 38000,
                    "date": "2014-07-27T13:04:10.000Z",
                    "lat": 47.6064,
                    "lon": 17.2012,
                    "source": "AirNav",
                    "speedMph": 510
                },
                {
                    "altitudeFt": 38000,
                    "date": "2014-07-27T13:03:45.000Z",
                    "lat": 47.6007,
                    "lon": 17.216,
                    "source": "AirNav",
                    "speedMph": 513
                },
                {
                    "altitudeFt": 38000,
                    "date": "2014-07-27T13:03:33.000Z",
                    "lat": 47.5801,
                    "lon": 17.2697,
                    "source": "AirNav",
                    "speedMph": 516
                },
                {
                    "altitudeFt": 38050,
                    "date": "2014-07-27T13:03:04.000Z",
                    "lat": 47.5574,
                    "lon": 17.3288,
                    "source": "AirNav",
                    "speedMph": 518
                },
                {
                    "altitudeFt": 38025,
                    "date": "2014-07-27T13:02:41.000Z",
                    "lat": 47.5182,
                    "lon": 17.4304,
                    "source": "AirNav",
                    "speedMph": 518
                },